{
    "contractors": [
        {
            "id": 1,
            "name": "XYZ Corp",
            "city": "West Orange",
            "state": "NJ",
            "disciplines": "HVAC; Plumbing; Electrical",
            "rating": 0,
            "certified": true
        },
        {
            "id": 2,
            "name": "ABC Contracting",
            "city": "East Orange",
            "state": "NJ",
            "disciplines": "HVAC; Plumbing; Electrical",
            "rating": 0,
            "certified": true
        },
        {
            "id": 3,
            "name": "Residential Cooling Inc",
            "city": "North Orange",
            "state": "NJ",
            "disciplines": "HVAC",
            "rating": 0,
            "certified": true
        },
        {
            "id": 4,
            "name": "Electrical Solutions",
            "city": "West Orange",
            "state": "NJ",
            "disciplines": "Electrical",
            "rating": 0,
            "certified": true
        },
        {
            "id": 5,
            "name": "Light & Heat",
            "city": "South Orange",
            "state": "NJ",
            "disciplines": "HVAC; Electrical",
            "rating": 0,
            "certified": true
        },
        {
            "id": 6,
            "name": "123 Contracting",
            "city": "East Orange",
            "state": "NJ",
            "disciplines": "HVAC; Plumbing; Electrical",
            "rating": 0,
            "certified": true
        },
        {
            "id": 7,
            "name": "Arctic Frost Cooling",
            "city": "North Orange",
            "state": "NJ",
            "disciplines": "HVAC",
            "rating": 0,
            "certified": true
        },
        {
            "id": 8,
            "name": "Heating & More",
            "city": "West Orange",
            "state": "NJ",
            "disciplines": "HVAC; Electrical",
            "rating": 0,
            "certified": true
        },
        {
            "id": 9,
            "name": "Solar Pump",
            "city": "South Orange",
            "state": "NJ",
            "disciplines": "Solar; HVAC; Electrical",
            "rating": 0,
            "certified": true
        }
    ],
    "projects": [
        {
            "id": 1,
            "customercontact": {
                "customerid": 1234,
                "first-name": "Kitty",
                "last-name": "Pride"
            },
            "address": {
                "street": "970 Burnley Station Dr.",
                "city": "Charlottesville",
                "state": "VA",
                "postal-code": "19434",
                "location": {
                    "latitude": 34.34343,
                    "longitude": -100.23243
                }
            },
            "projecturl": "/projects/1",
            "icon": {
                "icontype": "home",
                "color": "red"
            }
        },
        {
            "id": 2,
            "customercontact": {
                "customerid": 1235,
                "first-name": "Charles",
                "last-name": "Xavier"
            },
            "address": {
                "street": "1130 Applewood Rd.",
                "city": "North Gardenia",
                "state": "PA",
                "postal-code": "19434",
                "location": {
                    "latitude": 34.34343,
                    "longitude": -100.23243
                }
            },
            "projecturl": "/projects/2",
            "icon": {
                "icontype": "home",
                "color": "red"
            }
        },
        {
            "id": 3,
            "customercontact": {
                "customerid": 1236,
                "first-name": "Jean",
                "last-name": "Grey"
            },
            "address": {
                "street": "64 Martin Luther King Drive",
                "city": "Gainsville",
                "state": "PA",
                "postal-code": "34834",
                "location": {
                    "latitude": 34.34343,
                    "longitude": -100.23243
                }
            },
            "projecturl": "/projects/3",
            "icon": {
                "color": "red",
                "icontype": "home"
            }
        },
        {
            "id": 4,
            "customercontact": {
                "customerid": 1237,
                "first-name": "Bruce",
                "last-name": "Banner"
            },
            "address": {
                "street": "123 West Main Street",
                "city": "Somewheresville",
                "state": "PA",
                "postal-code": "34834",
                "location": {
                    "latitude": 34.34343,
                    "longitude": -100.23243
                }
            },
            "projecturl": "/projects/4",
            "icon": {
                "color": "red",
                "icontype": "home"
            }
        },
        {
            "id": 5,
            "customercontact": {
                "customerid": 1237,
                "first-name": "Peter",
                "last-name": "Parker"
            },
            "address": {
                "street": "123 East Hampton Drive",
                "city": "Nowheresville",
                "state": "PA",
                "postal-code": "34834",
                "location": {
                    "latitude": 34.34343,
                    "longitude": -100.23243
                }
            },
            "projecturl": "/projects/5",
            "icon": {
                "color": "red",
                "icontype": "home"
            }
        },
        {
            "id": 6,
            "customercontact": {
                "customerid": 1238,
                "first-name": "Peter",
                "last-name": "Parker"
            },
            "address": {
                "street": "123 Spiderville",
                "city": "Neighborhood",
                "state": "PA",
                "postal-code": "34834",
                "location": {
                    "latitude": 34.34343,
                    "longitude": -100.23243
                }
            },
            "projecturl": "/projects/6",
            "icon": {
                "color": "red",
                "icontype": "home"
            }
        }
    ],
    "profile": {
        "name": "typicode"
    }
}